{"campuses":[{"id":"campus-062","name":"神奈川県立横浜旭陵高等学校","address":"神奈川県横浜市旭区上白根町1161-7","municipality":"横浜市","lat":35.491466,"lng":139.5269686,"types":["high"],"ownerships":["prefectural"],"listings":[{"name":"神奈川県立横浜旭陵高等学校","types":["high"],"formalTypes":[{"type":"high","code":"16004","label":"高等学校"}],"ownerships":["prefectural"],"officialUrl":null,"institutionIds":["D114210010213-00"]}],"officialUrl":null},{"id":"campus-158","name":"神奈川県立横浜明朋高等学校","address":"神奈川県横浜市港南区港南台9-18-1","municipality":"横浜市","lat":35.370979,"lng":139.5736951,"types":["high"],"ownerships":["prefectural"],"listings":[{"name":"神奈川県立横浜明朋高等学校","types":["high"],"formalTypes":[{"type":"high","code":"16004","label":"高等学校"}],"ownerships":["prefectural"],"officialUrl":null,"institutionIds":["D114210010133-00"]}],"officialUrl":null},{"id":"campus-079","name":"神奈川県立横浜栄高等学校","address":"神奈川県横浜市栄区上郷町555","municipality":"横浜市","lat":35.3654755,"lng":139.5807109,"types":["high"],"ownerships":["prefectural"],"listings":[{"name":"神奈川県立横浜栄高等学校","types":["high"],"formalTypes":[{"type":"high","code":"16004","label":"高等学校"}],"ownerships":["prefectural"],"officialUrl":null,"institutionIds":["D114210010428-00"]}],"officialUrl":null},{"id":"campus-075","name":"神奈川県立横浜桜陽高等学校","address":"神奈川県横浜市戸塚区汲沢町973","municipality":"横浜市","lat":35.39091,"lng":139.5171401,"types":["high"],"ownerships":["prefectural"],"listings":[{"name":"神奈川県立横浜桜陽高等学校","types":["high"],"formalTypes":[{"type":"high","code":"16004","label":"高等学校"}],"ownerships":["prefectural"],"officialUrl":null,"institutionIds":["D114210010384-00"]}],"officialUrl":null},{"id":"campus-063","name":"神奈川県立横浜氷取沢高等学校","address":"神奈川県横浜市磯子区氷取沢町938-2","municipality":"横浜市","lat":35.3631729,"lng":139.6113844,"types":["high"],"ownerships":["prefectural"],"listings":[{"name":"神奈川県立横浜氷取沢高等学校","types":["high"],"formalTypes":[{"type":"high","code":"16004","label":"高等学校"}],"ownerships":["prefectural"],"officialUrl":null,"institutionIds":["D114210010231-00"]}],"officialUrl":null},{"id":"campus-054","name":"神奈川県立横浜清陵高等学校","address":"神奈川県横浜市南区清水ケ丘41","municipality":"横浜市","lat":35.4378553,"lng":139.610048,"types":["high"],"ownerships":["prefectural"],"listings":[{"name":"神奈川県立横浜清陵高等学校","types":["high"],"formalTypes":[{"type":"high","code":"16004","label":"高等学校"}],"ownerships":["prefectural"],"officialUrl":null,"institutionIds":["D114210010106-00"]}],"officialUrl":null},{"id":"campus-165","name":"神奈川県立横浜瀬谷高等学校","address":"神奈川県横浜市瀬谷区東野台29-1","municipality":"横浜市","lat":35.4784758,"lng":139.4987995,"types":["high"],"ownerships":["prefectural"],"listings":[{"name":"神奈川県立横浜瀬谷高等学校","types":["high"],"formalTypes":[{"type":"high","code":"16004","label":"高等学校"}],"ownerships":["prefectural"],"officialUrl":null,"institutionIds":["D114210010482-00"]}],"officialUrl":null},{"id":"campus-053","name":"神奈川県立横浜立野高等学校","address":"神奈川県横浜市中区本牧間門40-1","municipality":"横浜市","lat":35.418283,"lng":139.6538609,"types":["high"],"ownerships":["prefectural"],"listings":[{"name":"神奈川県立横浜立野高等学校","types":["high"],"formalTypes":[{"type":"high","code":"16004","label":"高等学校"}],"ownerships":["prefectural"],"officialUrl":null,"institutionIds":["D114210010099-00"]}],"officialUrl":null},{"id":"campus-052","name":"神奈川県立横浜緑ケ丘高等学校","address":"神奈川県横浜市中区本牧緑ケ丘37","municipality":"横浜市","lat":35.4246047,"lng":139.6526404,"types":["high"],"ownerships":["prefectural"],"listings":[{"name":"神奈川県立横浜緑ケ丘高等学校","types":["high"],"formalTypes":[{"type":"high","code":"16004","label":"高等学校"}],"ownerships":["prefectural"],"officialUrl":null,"institutionIds":["D114210010080-00"]}],"officialUrl":null},{"id":"campus-081","name":"神奈川県立横浜緑園高等学校","address":"神奈川県横浜市泉区岡津町2667","municipality":"横浜市","lat":35.4323727,"lng":139.5241213,"types":["high"],"ownerships":["prefectural"],"listings":[{"name":"神奈川県立横浜緑園高等学校","types":["high"],"formalTypes":[{"type":"high","code":"16004","label":"高等学校"}],"ownerships":["prefectural"],"officialUrl":null,"institutionIds":["D114210010446-00"]}],"officialUrl":null},{"id":"campus-049","name":"神奈川県立横浜翠嵐高等学校","address":"神奈川県横浜市神奈川区三ツ沢南町1-1","municipality":"横浜市","lat":35.4725509,"lng":139.6098168,"types":["high"],"ownerships":["prefectural"],"listings":[{"name":"神奈川県立横浜翠嵐高等学校","types":["high"],"formalTypes":[{"type":"high","code":"16004","label":"高等学校"}],"ownerships":["prefectural"],"officialUrl":null,"institutionIds":["D114210010053-00"]}],"officialUrl":null},{"id":"campus-159","name":"神奈川県立永谷高等学校","address":"神奈川県横浜市港南区下永谷1-28-1","municipality":"横浜市","lat":35.4134477,"lng":139.5641791,"types":["high"],"ownerships":["prefectural"],"listings":[{"name":"神奈川県立永谷高等学校","types":["high"],"formalTypes":[{"type":"high","code":"16004","label":"高等学校"}],"ownerships":["prefectural"],"officialUrl":null,"institutionIds":["D114210010142-00"]}],"officialUrl":null},{"id":"campus-065","name":"神奈川県立港北高等学校","address":"神奈川県横浜市港北区大倉山7-35-1","municipality":"横浜市","lat":35.5242773,"lng":139.6175446,"types":["high"],"ownerships":["prefectural"],"listings":[{"name":"神奈川県立港北高等学校","types":["high"],"formalTypes":[{"type":"high","code":"16004","label":"高等学校"}],"ownerships":["prefectural"],"officialUrl":null,"institutionIds":["D114210010268-00"]}],"officialUrl":null},{"id":"campus-069","name":"神奈川県立白山高等学校","address":"神奈川県横浜市緑区白山4-71-1","municipality":"横浜市","lat":35.4983298,"lng":139.551319,"types":["high"],"ownerships":["prefectural"],"listings":[{"name":"神奈川県立白山高等学校","types":["high"],"formalTypes":[{"type":"high","code":"16004","label":"高等学校"}],"ownerships":["prefectural"],"officialUrl":null,"institutionIds":["D114210010302-00"]}],"officialUrl":null},{"id":"campus-161","name":"神奈川県立磯子工業高等学校","address":"神奈川県横浜市磯子区森5-24-1","municipality":"横浜市","lat":35.3909204,"lng":139.6045399,"types":["high"],"ownerships":["prefectural"],"listings":[{"name":"神奈川県立磯子工業高等学校","types":["high"],"formalTypes":[{"type":"high","code":"16004","label":"高等学校"}],"ownerships":["prefectural"],"officialUrl":null,"institutionIds":["D114210010222-00"]}],"officialUrl":null},{"id":"campus-047","name":"神奈川県立神奈川工業高等学校","address":"神奈川県横浜市神奈川区平川町19-1","municipality":"横浜市","lat":35.4813462,"lng":139.6296791,"types":["high"],"ownerships":["prefectural"],"listings":[{"name":"神奈川県立神奈川工業高等学校","types":["high"],"formalTypes":[{"type":"high","code":"16004","label":"高等学校"}],"ownerships":["prefectural"],"officialUrl":null,"institutionIds":["D114210010035-00"]}],"officialUrl":null},{"id":"campus-048","name":"神奈川県立神奈川総合高等学校","address":"神奈川県横浜市神奈川区平川町19-2","municipality":"横浜市","lat":35.4810927,"lng":139.6286484,"types":["high"],"ownerships":["prefectural"],"listings":[{"name":"神奈川県立神奈川総合高等学校","types":["high"],"formalTypes":[{"type":"high","code":"16004","label":"高等学校"}],"ownerships":["prefectural"],"officialUrl":null,"institutionIds":["D114210010044-00"]}],"officialUrl":null},{"id":"campus-164","name":"神奈川県立舞岡高等学校","address":"神奈川県横浜市戸塚区南舞岡3-36-1","municipality":"横浜市","lat":35.3959806,"lng":139.5550828,"types":["high"],"ownerships":["prefectural"],"listings":[{"name":"神奈川県立舞岡高等学校","types":["high"],"formalTypes":[{"type":"high","code":"16004","label":"高等学校"}],"ownerships":["prefectural"],"officialUrl":null,"institutionIds":["D114210010375-00"]}],"officialUrl":null},{"id":"campus-073","name":"神奈川県立荏田高等学校","address":"神奈川県横浜市都筑区荏田南3-9-1","municipality":"横浜市","lat":35.549201,"lng":139.5551521,"types":["high"],"ownerships":["prefectural"],"listings":[{"name":"神奈川県立荏田高等学校","types":["high"],"formalTypes":[{"type":"high","code":"16004","label":"高等学校"}],"ownerships":["prefectural"],"officialUrl":null,"institutionIds":["D114210010357-00"]}],"officialUrl":null},{"id":"campus-078","name":"神奈川県立金井高等学校","address":"神奈川県横浜市栄区金井町100","municipality":"横浜市","lat":35.3741084,"lng":139.5238823,"types":["high"],"ownerships":["prefectural"],"listings":[{"name":"神奈川県立金井高等学校","types":["high"],"formalTypes":[{"type":"high","code":"16004","label":"高等学校"}],"ownerships":["prefectural"],"officialUrl":null,"institutionIds":["D114210010419-00"]}],"officialUrl":null},{"id":"campus-064","name":"神奈川県立金沢総合高等学校","address":"神奈川県横浜市金沢区富岡東6-34-1","municipality":"横浜市","lat":35.3662459,"lng":139.6349611,"types":["high"],"ownerships":["prefectural"],"listings":[{"name":"神奈川県立金沢総合高等学校","types":["high"],"formalTypes":[{"type":"high","code":"16004","label":"高等学校"}],"ownerships":["prefectural"],"officialUrl":null,"institutionIds":["D114210010240-00"]}],"officialUrl":null},{"id":"campus-162","name":"神奈川県立釜利谷高等学校","address":"神奈川県横浜市金沢区釜利谷東4-58-1","municipality":"横浜市","lat":35.3516518,"lng":139.6084817,"types":["high"],"ownerships":["prefectural"],"listings":[{"name":"神奈川県立釜利谷高等学校","types":["high"],"formalTypes":[{"type":"high","code":"16004","label":"高等学校"}],"ownerships":["prefectural"],"officialUrl":null,"institutionIds":["D114210010259-00"]}],"officialUrl":null},{"id":"campus-068","name":"神奈川県立霧が丘高等学校","address":"神奈川県横浜市緑区霧が丘6-16-1","municipality":"横浜市","lat":35.5099758,"lng":139.5023312,"types":["high"],"ownerships":["prefectural"],"listings":[{"name":"神奈川県立霧が丘高等学校","types":["high"],"formalTypes":[{"type":"high","code":"16004","label":"高等学校"}],"ownerships":["prefectural"],"officialUrl":null,"institutionIds":["D114210010295-00"]}],"officialUrl":null},{"id":"campus-071","name":"神奈川県立青葉総合高等学校","address":"神奈川県横浜市青葉区桂台2-39-2","municipality":"横浜市","lat":35.5523066,"lng":139.4979207,"types":["high"],"ownerships":["prefectural"],"listings":[{"name":"神奈川県立青葉総合高等学校","types":["high"],"formalTypes":[{"type":"high","code":"16004","label":"高等学校"}],"ownerships":["prefectural"],"officialUrl":"https://www.pen-kanagawa.ed.jp/aobasogo-ih/","institutionIds":["D114210010320-00"]}],"officialUrl":"https://www.pen-kanagawa.ed.jp/aobasogo-ih/"},{"id":"campus-046","name":"神奈川県立鶴見総合高等学校","address":"神奈川県横浜市鶴見区平安町2-28-8","municipality":"横浜市","lat":35.508564,"lng":139.693356,"types":["high"],"ownerships":["prefectural"],"listings":[{"name":"神奈川県立鶴見総合高等学校","types":["high"],"formalTypes":[{"type":"high","code":"16004","label":"高等学校"}],"ownerships":["prefectural"],"officialUrl":null,"institutionIds":["D114210010026-00"]}],"officialUrl":null},{"id":"campus-045","name":"神奈川県立鶴見高等学校","address":"神奈川県横浜市鶴見区下末吉6-2-1","municipality":"横浜市","lat":35.5188872,"lng":139.6630873,"types":["high"],"ownerships":["prefectural"],"listings":[{"name":"神奈川県立鶴見高等学校","types":["high"],"formalTypes":[{"type":"high","code":"16004","label":"高等学校"}],"ownerships":["prefectural"],"officialUrl":null,"institutionIds":["D114210010017-00"]}],"officialUrl":null},{"id":"campus-123","name":"秀英高等学校","address":"神奈川県横浜市泉区和泉町7865","municipality":"横浜市","lat":35.4339319,"lng":139.4989816,"types":["high"],"ownerships":["private"],"listings":[{"name":"秀英高等学校","types":["high"],"formalTypes":[{"type":"high","code":"16004","label":"高等学校"}],"ownerships":["private"],"officialUrl":null,"institutionIds":["D114310000393-00"]}],"officialUrl":null},{"id":"campus-004","name":"精華小学校／神奈川学園中学校／神奈川学園高等学校","address":"神奈川県横浜市神奈川区沢渡18","municipality":"横浜市","lat":35.4713354,"lng":139.617155,"types":["elementary","juniorHigh","high"],"ownerships":["private"],"listings":[{"name":"精華小学校","types":["elementary"],"formalTypes":[{"type":"elementary","code":"16001","label":"小学校"}],"ownerships":["private"],"officialUrl":null,"institutionIds":["B114310000020-00"]},{"name":"神奈川学園中学校","types":["juniorHigh"],"formalTypes":[{"type":"juniorHigh","code":"16002","label":"中学校"}],"ownerships":["private"],"officialUrl":null,"institutionIds":["C114310000055-00"]},{"name":"神奈川学園高等学校","types":["high"],"formalTypes":[{"type":"high","code":"16004","label":"高等学校"}],"ownerships":["private"],"officialUrl":null,"institutionIds":["D114310000071-00"]}],"officialUrl":null},{"id":"campus-003","name":"聖ヨゼフ学園 小学校・中学校・高等学校","address":"神奈川県横浜市鶴見区東寺尾北台11-1","municipality":"横浜市","lat":35.5127252,"lng":139.6642393,"types":["elementary","juniorHigh","high"],"ownerships":["private"],"listings":[{"name":"聖ヨゼフ学園小学校","types":["elementary"],"formalTypes":[{"type":"elementary","code":"16001","label":"小学校"}],"ownerships":["private"],"officialUrl":null,"institutionIds":["B114310000011-00"]},{"name":"聖ヨゼフ学園中学校","types":["juniorHigh"],"formalTypes":[{"type":"juniorHigh","code":"16002","label":"中学校"}],"ownerships":["private"],"officialUrl":null,"institutionIds":["C114310000019-00"]},{"name":"聖ヨゼフ学園高等学校","types":["high"],"formalTypes":[{"type":"high","code":"16004","label":"高等学校"}],"ownerships":["private"],"officialUrl":null,"institutionIds":["D114310000026-00"]}],"officialUrl":null},{"id":"campus-020","name":"聖光学院 中学校・高等学校","address":"神奈川県横浜市中区滝之上100","municipality":"横浜市","lat":35.4225668,"lng":139.6427468,"types":["juniorHigh","high"],"ownerships":["private"],"listings":[{"name":"聖光学院中学校","types":["juniorHigh"],"formalTypes":[{"type":"juniorHigh","code":"16002","label":"中学校"}],"ownerships":["private"],"officialUrl":null,"institutionIds":["C114310000082-00"]},{"name":"聖光学院高等学校","types":["high"],"formalTypes":[{"type":"high","code":"16004","label":"高等学校"}],"ownerships":["private"],"officialUrl":null,"institutionIds":["D114310000106-00"]}],"officialUrl":null},{"id":"campus-118","name":"英理女子学院高等学校","address":"神奈川県横浜市港北区菊名7-6-43","municipality":"横浜市","lat":35.5150957,"lng":139.6293979,"types":["high"],"ownerships":["private"],"listings":[{"name":"英理女子学院高等学校","types":["high"],"formalTypes":[{"type":"high","code":"16004","label":"高等学校"}],"ownerships":["private"],"officialUrl":null,"institutionIds":["D114310000231-00"]}],"officialUrl":null},{"id":"campus-024","name":"関東学院 小学校・中学校・高等学校","address":"神奈川県横浜市南区三春台4","municipality":"横浜市","lat":35.441862,"lng":139.6200321,"types":["elementary","juniorHigh","high"],"ownerships":["private"],"listings":[{"name":"関東学院小学校","types":["elementary"],"formalTypes":[{"type":"elementary","code":"16001","label":"小学校"}],"ownerships":["private"],"officialUrl":null,"institutionIds":["B114310000057-00"]},{"name":"関東学院中学校","types":["juniorHigh"],"formalTypes":[{"type":"juniorHigh","code":"16002","label":"中学校"}],"ownerships":["private"],"officialUrl":null,"institutionIds":["C114310000135-00"]},{"name":"関東学院高等学校","types":["high"],"formalTypes":[{"type":"high","code":"16004","label":"高等学校"}],"ownerships":["private"],"officialUrl":null,"institutionIds":["D114310000151-00"]}],"officialUrl":null},{"id":"campus-133","name":"関東学院六浦小学校／関東学院六浦中学校／関東学院六浦高等学校／関東学院大学 横浜・金沢八景キャンパス","address":"神奈川県横浜市金沢区六浦東1-50-1","municipality":"横浜市","lat":35.3234327,"lng":139.6257079,"types":["elementary","juniorHigh","high","university"],"ownerships":["private"],"listings":[{"name":"関東学院六浦小学校","types":["elementary"],"formalTypes":[{"type":"elementary","code":"16001","label":"小学校"}],"ownerships":["private"],"officialUrl":null,"institutionIds":["B114310000075-00"]},{"name":"関東学院六浦中学校","types":["juniorHigh"],"formalTypes":[{"type":"juniorHigh","code":"16002","label":"中学校"}],"ownerships":["private"],"officialUrl":null,"institutionIds":["C114310000171-00"]},{"name":"関東学院六浦高等学校","types":["high"],"formalTypes":[{"type":"high","code":"16004","label":"高等学校"}],"ownerships":["private"],"officialUrl":null,"institutionIds":["D114310000197-00"]},{"name":"関東学院大学 横浜・金沢八景キャンパス","types":["university"],"formalTypes":[{"type":"university","code":"16007","label":"大学"}],"ownerships":["private"],"officialUrl":"https://univ.kanto-gakuin.ac.jp/about-university/campus-facilities/campus.html","institutionIds":["F114310104650-01"]}],"officialUrl":"https://univ.kanto-gakuin.ac.jp/about-university/campus-facilities/campus.html"},{"id":"campus-196","name":"関東学院大学 横浜・金沢文庫キャンパス","address":"神奈川県横浜市金沢区釜利谷南3-22-1","municipality":"横浜市","lat":35.3372262,"lng":139.5975852,"types":["university"],"ownerships":["private"],"listings":[{"name":"関東学院大学 横浜・金沢文庫キャンパス","types":["university"],"formalTypes":[{"type":"university","code":"16007","label":"大学"}],"ownerships":["private"],"officialUrl":"https://univ.kanto-gakuin.ac.jp/about-university/campus-facilities/campus.html","institutionIds":["F114310104650-02"]}],"officialUrl":"https://univ.kanto-gakuin.ac.jp/about-university/campus-facilities/campus.html"},{"id":"campus-197","name":"関東学院大学 横浜・関内キャンパス","address":"神奈川県横浜市中区万代町1-1-1","municipality":"横浜市","lat":35.443042,"lng":139.6364296,"types":["university"],"ownerships":["private"],"listings":[{"name":"関東学院大学 横浜・関内キャンパス","types":["university"],"formalTypes":[{"type":"university","code":"16007","label":"大学"}],"ownerships":["private"],"officialUrl":"https://univ.kanto-gakuin.ac.jp/about-university/campus-facilities/campus.html","institutionIds":["F114310104650-03"]}],"officialUrl":"https://univ.kanto-gakuin.ac.jp/about-university/campus-facilities/campus.html"},{"id":"campus-007","name":"青山学院横浜英和 小学校・中学校・高等学校","address":"神奈川県横浜市南区蒔田町124","municipality":"横浜市","lat":35.4270133,"lng":139.6094582,"types":["elementary","juniorHigh","high"],"ownerships":["private"],"listings":[{"name":"青山学院横浜英和小学校","types":["elementary"],"formalTypes":[{"type":"elementary","code":"16001","label":"小学校"}],"ownerships":["private"],"officialUrl":null,"institutionIds":["B114310000066-00"]},{"name":"青山学院横浜英和中学校","types":["juniorHigh"],"formalTypes":[{"type":"juniorHigh","code":"16002","label":"中学校"}],"ownerships":["private"],"officialUrl":null,"institutionIds":["C114310000144-00"]},{"name":"青山学院横浜英和高等学校","types":["high"],"formalTypes":[{"type":"high","code":"16004","label":"高等学校"}],"ownerships":["private"],"officialUrl":null,"institutionIds":["D114310000160-00"]}],"officialUrl":null},{"id":"campus-018","name":"鶴見大学附属 中学校・高等学校","address":"神奈川県横浜市鶴見区鶴見2-2-1","municipality":"横浜市","lat":35.5054279,"lng":139.6666498,"types":["juniorHigh","high"],"ownerships":["private"],"listings":[{"name":"鶴見大学附属中学校","types":["juniorHigh"],"formalTypes":[{"type":"juniorHigh","code":"16002","label":"中学校"}],"ownerships":["private"],"officialUrl":null,"institutionIds":["C114310000037-00"]},{"name":"鶴見大学附属高等学校","types":["high"],"formalTypes":[{"type":"high","code":"16004","label":"高等学校"}],"ownerships":["private"],"officialUrl":null,"institutionIds":["D114310000044-00"]}],"officialUrl":null},{"id":"campus-134","name":"鶴見大学／鶴見大学短期大学部","address":"神奈川県横浜市鶴見区鶴見2-1-3","municipality":"横浜市","lat":35.5055522,"lng":139.6728378,"types":["university"],"ownerships":["private"],"listings":[{"name":"鶴見大学","types":["university"],"formalTypes":[{"type":"university","code":"16007","label":"大学"}],"ownerships":["private"],"officialUrl":"https://www.tsurumi-u.ac.jp/site/about/accessmap-index.html","institutionIds":["F114310104669-00"]},{"name":"鶴見大学短期大学部","types":["university"],"formalTypes":[{"type":"university","code":"16006","label":"短期大学"}],"ownerships":["private"],"officialUrl":"https://www.tsurumi-u.ac.jp/site/about/accessmap-index.html","institutionIds":["F214310104926-00"]}],"officialUrl":"https://www.tsurumi-u.ac.jp/site/about/accessmap-index.html"},{"id":"campus-124","name":"三浦学苑高等学校","address":"神奈川県横須賀市衣笠栄町3-80","municipality":"横須賀市","lat":35.2610215,"lng":139.6567898,"types":["high"],"ownerships":["private"],"listings":[{"name":"三浦学苑高等学校","types":["high"],"formalTypes":[{"type":"high","code":"16004","label":"高等学校"}],"ownerships":["private"],"officialUrl":null,"institutionIds":["D114320100024-00"]}],"officialUrl":null},{"id":"campus-125","name":"横須賀学院小学校／横須賀学院中学校／横須賀学院高等学校／神奈川歯科大学／神奈川歯科大学短期大学部","address":"神奈川県横須賀市稲岡町82","municipality":"横須賀市","lat":35.2847382,"lng":139.6715362,"types":["elementary","juniorHigh","high","university"],"ownerships":["private"],"listings":[{"name":"横須賀学院小学校","types":["elementary"],"formalTypes":[{"type":"elementary","code":"16001","label":"小学校"}],"ownerships":["private"],"officialUrl":null,"institutionIds":["B114320100019-00"]},{"name":"横須賀学院中学校","types":["juniorHigh"],"formalTypes":[{"type":"juniorHigh","code":"16002","label":"中学校"}],"ownerships":["private"],"officialUrl":null,"institutionIds":["C114320100026-00"]},{"name":"横須賀学院高等学校","types":["high"],"formalTypes":[{"type":"high","code":"16004","label":"高等学校"}],"ownerships":["private"],"officialUrl":null,"institutionIds":["D114320100042-00"]},{"name":"神奈川歯科大学","types":["university"],"formalTypes":[{"type":"university","code":"16007","label":"大学"}],"ownerships":["private"],"officialUrl":"https://www.kdu.ac.jp/","institutionIds":["F114310104730-00"]},{"name":"神奈川歯科大学短期大学部","types":["university"],"formalTypes":[{"type":"university","code":"16006","label":"短期大学"}],"ownerships":["private"],"officialUrl":"https://www.kdu.ac.jp/college/","institutionIds":["F214310105006-00"]}],"officialUrl":"https://www.kdu.ac.jp/"},{"id":"campus-095","name":"横須賀市立横須賀総合高等学校","address":"神奈川県横須賀市久里浜6-1-1","municipality":"横須賀市","lat":35.2295561,"lng":139.708906,"types":["high"],"ownerships":["municipal"],"listings":[{"name":"横須賀市立横須賀総合高等学校","types":["high"],"formalTypes":[{"type":"high","code":"16004","label":"高等学校"}],"ownerships":["municipal"],"officialUrl":null,"institutionIds":["D114220120013-00"]}],"officialUrl":null},{"id":"campus-177","name":"湘南学院高等学校","address":"神奈川県横須賀市佐原2-2-20","municipality":"横須賀市","lat":35.244066,"lng":139.6853063,"types":["high"],"ownerships":["private"],"listings":[{"name":"湘南学院高等学校","types":["high"],"formalTypes":[{"type":"high","code":"16004","label":"高等学校"}],"ownerships":["private"],"officialUrl":null,"institutionIds":["D114320100015-00"]}],"officialUrl":null},{"id":"campus-037","name":"神奈川歯科大学系属緑ヶ丘女子 中学校・高等学校","address":"神奈川県横須賀市緑が丘39","municipality":"横須賀市","lat":35.2803488,"lng":139.6643261,"types":["juniorHigh","high"],"ownerships":["private"],"listings":[{"name":"神奈川歯科大学系属緑ヶ丘女子中学校","types":["juniorHigh"],"formalTypes":[{"type":"juniorHigh","code":"16002","label":"中学校"}],"ownerships":["private"],"officialUrl":"https://www.kdu.ac.jp/corporation/news/topics/20241225_news.html","institutionIds":["C114320100017-00"]},{"name":"神奈川歯科大学系属緑ヶ丘女子高等学校","types":["high"],"formalTypes":[{"type":"high","code":"16004","label":"高等学校"}],"ownerships":["private"],"officialUrl":"https://www.kdu.ac.jp/corporation/news/topics/20241225_news.html","institutionIds":["D114320100033-00"]}],"officialUrl":"https://www.kdu.ac.jp/corporation/news/topics/20241225_news.html"},{"id":"campus-131","name":"神奈川県立保健福祉大学","address":"神奈川県横須賀市平成町1-10-1","municipality":"横須賀市","lat":35.2738468,"lng":139.6810485,"types":["university"],"ownerships":["prefectural"],"listings":[{"name":"神奈川県立保健福祉大学","types":["university"],"formalTypes":[{"type":"university","code":"16007","label":"大学"}],"ownerships":["prefectural"],"officialUrl":"https://www.kuhs.ac.jp/","institutionIds":["F114210104625-00"]}],"officialUrl":"https://www.kuhs.ac.jp/"},{"id":"campus-169","name":"神奈川県立横須賀南高等学校","address":"神奈川県横須賀市佐原4-20-1","municipality":"横須賀市","lat":35.2370266,"lng":139.6888323,"types":["high"],"ownerships":["prefectural"],"listings":[{"name":"神奈川県立横須賀南高等学校","types":["high"],"formalTypes":[{"type":"high","code":"16004","label":"高等学校"}],"ownerships":["prefectural"],"officialUrl":null,"institutionIds":["D114220110079-00"]}],"officialUrl":null},{"id":"campus-091","name":"神奈川県立横須賀大津高等学校","address":"神奈川県横須賀市大津町4-17-1","municipality":"横須賀市","lat":35.2589695,"lng":139.6920386,"types":["high"],"ownerships":["prefectural"],"listings":[{"name":"神奈川県立横須賀大津高等学校","types":["high"],"formalTypes":[{"type":"high","code":"16004","label":"高等学校"}],"ownerships":["prefectural"],"officialUrl":null,"institutionIds":["D114220110024-00"]}],"officialUrl":null},{"id":"campus-092","name":"神奈川県立横須賀工業高等学校","address":"神奈川県横須賀市公郷町4-10","municipality":"横須賀市","lat":35.255289,"lng":139.6770231,"types":["high"],"ownerships":["prefectural"],"listings":[{"name":"神奈川県立横須賀工業高等学校","types":["high"],"formalTypes":[{"type":"high","code":"16004","label":"高等学校"}],"ownerships":["prefectural"],"officialUrl":null,"institutionIds":["D114220110033-00"]}],"officialUrl":null},{"id":"campus-090","name":"神奈川県立横須賀高等学校","address":"神奈川県横須賀市公郷町3-109","municipality":"横須賀市","lat":35.2566748,"lng":139.6702159,"types":["high"],"ownerships":["prefectural"],"listings":[{"name":"神奈川県立横須賀高等学校","types":["high"],"formalTypes":[{"type":"high","code":"16004","label":"高等学校"}],"ownerships":["prefectural"],"officialUrl":null,"institutionIds":["D114220110015-00"]}],"officialUrl":null},{"id":"campus-094","name":"神奈川県立津久井浜高等学校","address":"神奈川県横須賀市津久井4-4-1","municipality":"横須賀市","lat":35.2002364,"lng":139.6634693,"types":["high"],"ownerships":["prefectural"],"listings":[{"name":"神奈川県立津久井浜高等学校","types":["high"],"formalTypes":[{"type":"high","code":"16004","label":"高等学校"}],"ownerships":["prefectural"],"officialUrl":null,"institutionIds":["D114220110060-00"]}],"officialUrl":null},{"id":"campus-168","name":"神奈川県立海洋科学高等学校","address":"神奈川県横須賀市長坂1-2-1","municipality":"横須賀市","lat":35.2218785,"lng":139.628587,"types":["high"],"ownerships":["prefectural"],"listings":[{"name":"神奈川県立海洋科学高等学校","types":["high"],"formalTypes":[{"type":"high","code":"16004","label":"高等学校"}],"ownerships":["prefectural"],"officialUrl":null,"institutionIds":["D114220110042-00"]}],"officialUrl":null}]}
