{"categories":["ホームセンター","スーパー","ドラッグストア","調剤薬局"],"meta":{"checkedAt":"2026年7月24日"},"places":[{"id":"HC-005","name":"カインズ鎌倉梶原店","address":"鎌倉市梶原字古川240番地内（仮）","lat":35.3330819,"lng":139.5101926,"categories":["ホームセンター"],"listings":[{"name":"カインズ鎌倉梶原店","category":"ホームセンター","publicDescription":"2026年秋開業予定。所在地は公式発表の仮住所で、開業後に再確認します。","officialUrl":"https://www.cainz.co.jp/news/16585/"}],"primaryCategory":"ホームセンター"},{"id":"HC-001+HC-002","name":"コーナン鎌倉大船店・PRO","address":"鎌倉市岡本1188-1","lat":35.3473859,"lng":139.5168921,"categories":["ホームセンター"],"listings":[{"name":"ホームセンターコーナン鎌倉大船店","category":"ホームセンター","officialUrl":"https://map.hc-kohnan.com/shop/180"},{"name":"コーナンPRO鎌倉大船店","category":"ホームセンター","officialUrl":"https://map.hc-kohnan.com/shop/18002"}],"primaryCategory":"ホームセンター"},{"id":"HC-003","name":"ロイヤルホームセンター戸塚深谷","address":"横浜市戸塚区深谷町1051-1","lat":35.3847943,"lng":139.499599,"categories":["ホームセンター"],"listings":[{"name":"ロイヤルホームセンター戸塚深谷","category":"ホームセンター","officialUrl":"https://www.royal-hc.co.jp/shops/01027"}],"primaryCategory":"ホームセンター"},{"id":"HC-004","name":"ロイヤルホームセンター藤沢","address":"藤沢市辻堂新町4-1-1 湘南モールフィル内","lat":35.3391331,"lng":139.4645072,"categories":["ホームセンター"],"listings":[{"name":"ロイヤルホームセンター藤沢","category":"ホームセンター","officialUrl":"https://www.royal-hc.co.jp/shops/01042"}],"primaryCategory":"ホームセンター"},{"id":"SM-006","name":"そうてつローゼン鎌倉深沢店","address":"鎌倉市笛田3-16-1","lat":35.3297157,"lng":139.5189116,"categories":["スーパー"],"listings":[{"name":"そうてつローゼン鎌倉深沢店","category":"スーパー","officialUrl":"https://www.sotetsu.rosen.co.jp/shopdetail?scode=0042"}],"primaryCategory":"スーパー"},{"id":"SM-005","name":"たまや鎌倉手広店","address":"鎌倉市笛田1-2-10","lat":35.3304989,"lng":139.5142369,"categories":["スーパー"],"listings":[{"name":"たまや鎌倉手広店","category":"スーパー","officialUrl":"http://www.fresh-tamaya.jp/shop/detail.php?id=10"}],"primaryCategory":"スーパー"},{"id":"SM-012","name":"やまか江の島店","address":"藤沢市片瀬海岸1-6-5","lat":35.3102036,"lng":139.4892049,"categories":["スーパー"],"listings":[{"name":"やまか江の島店","category":"スーパー","officialUrl":"https://yamaka.co.jp/"}],"primaryCategory":"スーパー"},{"id":"SM-007","name":"やまか深沢店","address":"鎌倉市常盤55","lat":35.3315016,"lng":139.517445,"categories":["スーパー"],"listings":[{"name":"やまか深沢店","category":"スーパー","officialUrl":"https://yamaka.co.jp/"}],"primaryCategory":"スーパー"},{"id":"SM-009+DS-008","name":"やまか片瀬山店・湘南薬品片瀬山薬局","address":"藤沢市片瀬山2-7-1","lat":35.323638,"lng":139.494238,"categories":["スーパー","ドラッグストア","調剤薬局"],"listings":[{"name":"やまか片瀬山店","category":"スーパー","officialUrl":"https://yamaka.co.jp/"},{"name":"湘南薬品片瀬山薬局","category":"ドラッグストア","publicDescription":"調剤併設。","officialUrl":"https://shonan-yakuhin.co.jp/shop/"},{"name":"湘南薬品片瀬山薬局","category":"調剤薬局","publicDescription":"ドラッグストアに併設する調剤薬局。","officialUrl":"https://shonan-yakuhin.co.jp/shop/"}],"primaryCategory":"スーパー"},{"id":"SM-001","name":"スズキヤ西鎌倉店","address":"鎌倉市西鎌倉1-20-50","lat":35.3197,"lng":139.5049291,"categories":["スーパー"],"listings":[{"name":"スズキヤ西鎌倉店","category":"スーパー","officialUrl":"https://www.suzukiya-inc.jp/store/525/"}],"primaryCategory":"スーパー"},{"id":"SM-010","name":"ヤオコー藤沢片瀬店","address":"藤沢市片瀬310-2","lat":35.3293985,"lng":139.4880994,"categories":["スーパー"],"listings":[{"name":"ヤオコー藤沢片瀬店","category":"スーパー","officialUrl":"https://www.yaoko-net.com/store/store07/181.html"}],"primaryCategory":"スーパー"},{"id":"SM-002","name":"ユーコープ西鎌倉店","address":"鎌倉市西鎌倉1-21-18","lat":35.3213915,"lng":139.5062068,"categories":["スーパー"],"listings":[{"name":"ユーコープ西鎌倉店","category":"スーパー","officialUrl":"https://info.ucoop.coop/store/1317/"}],"primaryCategory":"スーパー"},{"id":"SM-011","name":"全日食チェーン YAOFUKU","address":"藤沢市片瀬5-6-7","lat":35.3196478,"lng":139.485169,"categories":["スーパー"],"listings":[{"name":"全日食チェーン YAOFUKU","category":"スーパー","publicDescription":"全日食チェーン加盟店。","officialUrl":"https://ptl.zchain.co.jp/store/1937"}],"primaryCategory":"スーパー"},{"id":"SM-004","name":"業務スーパー津西店","address":"鎌倉市津西1-5-8","lat":35.3147449,"lng":139.5014071,"categories":["スーパー"],"listings":[{"name":"業務スーパー津西店","category":"スーパー","publicDescription":"運営：やまか。","officialUrl":"https://www.gyomusuper.jp/shop/detail.php?sh_id=1554"}],"primaryCategory":"スーパー"},{"id":"SM-008","name":"生活クラブ鎌倉デポー","address":"鎌倉市常盤165-1","lat":35.3299416,"lng":139.520592,"categories":["スーパー"],"listings":[{"name":"生活クラブ鎌倉デポー","category":"スーパー","officialUrl":"https://kanagawa.seikatsuclub.coop/service/depot/kamakura.html"}],"primaryCategory":"スーパー"},{"id":"SM-003","name":"西友七里ヶ浜店","address":"鎌倉市七里ガ浜東4-1-3","lat":35.3098985,"lng":139.516626,"categories":["スーパー"],"listings":[{"name":"西友七里ヶ浜店","category":"スーパー","officialUrl":"https://www.seiyu.co.jp/shop/%E8%A5%BF%E5%8F%8B%E4%B8%83%E9%87%8C%E3%83%B6%E6%B5%9C%E5%BA%97/"}],"primaryCategory":"スーパー"},{"id":"DS-003","name":"クリエイトS・D新鎌倉手広店","address":"鎌倉市手広1-5-27","lat":35.330056,"lng":139.511757,"categories":["ドラッグストア","調剤薬局"],"listings":[{"name":"クリエイトS・D新鎌倉手広店","category":"ドラッグストア","officialUrl":"https://store.create-sd.co.jp/detail/0238/"},{"name":"クリエイト薬局新鎌倉手広店","category":"調剤薬局","publicDescription":"ドラッグストアに併設する調剤薬局。","officialUrl":"https://store.create-sd.co.jp/detail/0238/"}],"primaryCategory":"ドラッグストア"},{"id":"DS-011","name":"クリエイトS・D藤沢片瀬店","address":"藤沢市片瀬83-4","lat":35.3306189,"lng":139.487789,"categories":["ドラッグストア","調剤薬局"],"listings":[{"name":"クリエイトS・D藤沢片瀬店","category":"ドラッグストア","officialUrl":"https://store.create-sd.co.jp/detail/0461/"},{"name":"クリエイト薬局藤沢片瀬店","category":"調剤薬局","publicDescription":"ドラッグストアに併設する調剤薬局。","officialUrl":"https://store.create-sd.co.jp/detail/0461/"}],"primaryCategory":"ドラッグストア"},{"id":"DS-009","name":"クリエイトS・D鎌倉山崎店","address":"鎌倉市山崎37-4","lat":35.3445778,"lng":139.521137,"categories":["ドラッグストア","調剤薬局"],"listings":[{"name":"クリエイトS・D鎌倉山崎店","category":"ドラッグストア","officialUrl":"https://store.create-sd.co.jp/detail/0891/"},{"name":"クリエイト薬局鎌倉山崎店","category":"調剤薬局","publicDescription":"ドラッグストアに併設する調剤薬局。2026年5月に調剤部門が新規指定。","officialUrl":"https://store.create-sd.co.jp/detail/0891/"}],"primaryCategory":"ドラッグストア"},{"id":"DS-010","name":"クリエイトS・D鎌倉梶原店","address":"鎌倉市梶原2-33-50","lat":35.328488,"lng":139.5303803,"categories":["ドラッグストア","調剤薬局"],"listings":[{"name":"クリエイトS・D鎌倉梶原店","category":"ドラッグストア","officialUrl":"https://store.create-sd.co.jp/detail/0734/"},{"name":"クリエイト薬局鎌倉梶原店","category":"調剤薬局","publicDescription":"ドラッグストアに併設する調剤薬局。","officialUrl":"https://store.create-sd.co.jp/detail/0734/"}],"primaryCategory":"ドラッグストア"},{"id":"DS-001","name":"クリエイトS・D鎌倉津西店","address":"鎌倉市津西1-8-14","lat":35.3158393,"lng":139.5025626,"categories":["ドラッグストア"],"listings":[{"name":"クリエイトS・D鎌倉津西店","category":"ドラッグストア","officialUrl":"https://store.create-sd.co.jp/detail/0283/"}],"primaryCategory":"ドラッグストア"},{"id":"DS-004","name":"クリエイトS・D鎌倉西手広店","address":"鎌倉市手広3-13-35","lat":35.3310293,"lng":139.5073233,"categories":["ドラッグストア","調剤薬局"],"listings":[{"name":"クリエイトS・D鎌倉西手広店","category":"ドラッグストア","officialUrl":"https://store.create-sd.co.jp/detail/0837/"},{"name":"クリエイト薬局鎌倉西手広店","category":"調剤薬局","publicDescription":"ドラッグストアに併設する調剤薬局。","officialUrl":"https://store.create-sd.co.jp/detail/0837/"}],"primaryCategory":"ドラッグストア"},{"id":"DS-002","name":"ココカラファイン七里ヶ浜店","address":"鎌倉市七里ガ浜東4-1-2","lat":35.3096,"lng":139.516474,"categories":["ドラッグストア"],"listings":[{"name":"ココカラファイン七里ヶ浜店","category":"ドラッグストア","officialUrl":"https://www.matsukiyococokara-online.com/map?kid=20002182"}],"primaryCategory":"ドラッグストア"},{"id":"DS-005","name":"サンドラッグ鎌倉常盤店","address":"鎌倉市常盤276-1","lat":35.328598,"lng":139.522324,"categories":["ドラッグストア","調剤薬局"],"listings":[{"name":"サンドラッグ鎌倉常盤店","category":"ドラッグストア","officialUrl":"https://sundrug.yqb.jp/pharmacies/74/"},{"name":"サンドラッグ鎌倉常盤薬局","category":"調剤薬局","publicDescription":"ドラッグストアに併設する調剤薬局。","officialUrl":"https://sundrug.yqb.jp/pharmacies/74/"}],"primaryCategory":"ドラッグストア"},{"id":"DS-012","name":"ハックドラッグ江の島店","address":"藤沢市片瀬海岸1-7-30","lat":35.310246,"lng":139.488759,"categories":["ドラッグストア"],"listings":[{"name":"ハックドラッグ江の島店","category":"ドラッグストア","publicDescription":"公式店舗ページでは調剤サービスの表示なし。","officialUrl":"https://store.welcia.co.jp/welcia/spot/detail?code=2119D"}],"primaryCategory":"ドラッグストア"},{"id":"DS-006","name":"湘南薬品 西カマクラ薬局","address":"鎌倉市腰越1179","lat":35.3191639,"lng":139.5044597,"categories":["ドラッグストア","調剤薬局"],"listings":[{"name":"湘南薬品 西カマクラ薬局","category":"ドラッグストア","publicDescription":"調剤併設。","officialUrl":"https://shonan-yakuhin.co.jp/shop/"},{"name":"湘南薬品西カマクラ薬局","category":"調剤薬局","publicDescription":"ドラッグストアに併設する調剤薬局。","officialUrl":"https://shonan-yakuhin.co.jp/shop/"}],"primaryCategory":"ドラッグストア"},{"id":"DS-007","name":"薬局湘南薬品ラポール西鎌倉","address":"鎌倉市西鎌倉1-19-13","lat":35.319656,"lng":139.50416,"categories":["ドラッグストア","調剤薬局"],"listings":[{"name":"薬局湘南薬品ラポール西鎌倉","category":"ドラッグストア","publicDescription":"調剤併設。","officialUrl":"https://shonan-yakuhin.co.jp/shop/"},{"name":"薬局湘南薬品ラポール西鎌倉","category":"調剤薬局","publicDescription":"ドラッグストアに併設する調剤薬局。","officialUrl":"https://shonan-yakuhin.co.jp/shop/"}],"primaryCategory":"ドラッグストア"},{"id":"PH-022","name":"こじか薬局江の島駅前店","address":"藤沢市片瀬海岸2-9-5 シーサイドハイツ102","lat":35.3095487,"lng":139.483628,"categories":["調剤薬局"],"listings":[{"name":"こじか薬局江の島駅前店","category":"調剤薬局","officialUrl":"https://shop.tomods.jp/detail/942/"}],"primaryCategory":"調剤薬局"},{"id":"PH-017","name":"こじか薬局片瀬店","address":"藤沢市片瀬2-11-16","lat":35.321005,"lng":139.486217,"categories":["調剤薬局"],"listings":[{"name":"こじか薬局片瀬店","category":"調剤薬局","officialUrl":"https://shop.tomods.jp/detail/941/"}],"primaryCategory":"調剤薬局"},{"id":"PH-006","name":"さくら薬局七里ガ浜店","address":"鎌倉市七里ガ浜2-20-18","lat":35.30779,"lng":139.502157,"categories":["調剤薬局"],"listings":[{"name":"さくら薬局七里ガ浜店","category":"調剤薬局","officialUrl":"https://www.kraft-net.co.jp/sakura/store/3223/"}],"primaryCategory":"調剤薬局"},{"id":"PH-002","name":"さくら薬局西鎌倉駅前店","address":"鎌倉市西鎌倉1-19-17","lat":35.319356,"lng":139.503868,"categories":["調剤薬局"],"listings":[{"name":"さくら薬局西鎌倉駅前店","category":"調剤薬局","officialUrl":"https://www.iryou.teikyouseido.mhlw.go.jp/znk-web/juminkanja/S2430/initialize?kikanCd=1411707000&kikanKbn=5&prefCd=14"}],"primaryCategory":"調剤薬局"},{"id":"PH-003","name":"しんわ薬局西鎌倉店","address":"鎌倉市腰越1016-3","lat":35.31781544,"lng":139.50342919,"categories":["調剤薬局"],"listings":[{"name":"しんわ薬局西鎌倉店","category":"調剤薬局","officialUrl":"https://www.mdx-yakuzaishi.co.jp/shop/455/"}],"primaryCategory":"調剤薬局"},{"id":"PH-005","name":"すばる中央薬局腰越店","address":"鎌倉市腰越4-8-1","lat":35.311181,"lng":139.497221,"categories":["調剤薬局"],"listings":[{"name":"すばる中央薬局腰越店","category":"調剤薬局","officialUrl":"https://www.iryou.teikyouseido.mhlw.go.jp/znk-web/juminkanja/S2430/initialize?kikanCd=1411713400&kikanKbn=5&prefCd=14"}],"primaryCategory":"調剤薬局"},{"id":"PH-010","name":"すみれ中央薬局鎌倉店","address":"鎌倉市笛田2-1-40","lat":35.32986571,"lng":139.51734224,"categories":["調剤薬局"],"listings":[{"name":"すみれ中央薬局鎌倉店","category":"調剤薬局","officialUrl":"https://www.iryou.teikyouseido.mhlw.go.jp/znk-web/juminkanja/S2430/initialize?kikanCd=1411670700&kikanKbn=5&prefCd=14"}],"primaryCategory":"調剤薬局"},{"id":"PH-021","name":"つぐみ薬局","address":"藤沢市片瀬山2-7-6","lat":35.3235556,"lng":139.4929444,"categories":["調剤薬局"],"listings":[{"name":"つぐみ薬局","category":"調剤薬局","officialUrl":"https://www.iryou.teikyouseido.mhlw.go.jp/znk-web/juminkanja/S2430/initialize?kikanCd=1428225900&kikanKbn=5&prefCd=14"}],"primaryCategory":"調剤薬局"},{"id":"PH-001","name":"にしかま薬局","address":"鎌倉市西鎌倉1-2-3","lat":35.322783,"lng":139.50591,"categories":["調剤薬局"],"listings":[{"name":"にしかま薬局","category":"調剤薬局","officialUrl":"https://www.iryou.teikyouseido.mhlw.go.jp/znk-web/juminkanja/S2430/initialize?kikanCd=1411711800&kikanKbn=5&prefCd=14"}],"primaryCategory":"調剤薬局"},{"id":"PH-019","name":"まなみ薬局","address":"藤沢市片瀬3-16-16","lat":35.31315,"lng":139.4877,"categories":["調剤薬局"],"listings":[{"name":"まなみ薬局","category":"調剤薬局","officialUrl":"https://www.xn--u8jas9esjk69w1u2c.com/shop/shop3.html"}],"primaryCategory":"調剤薬局"},{"id":"PH-008","name":"アイビス薬局手広店","address":"鎌倉市手広3-14-8","lat":35.33156,"lng":139.505635,"categories":["調剤薬局"],"listings":[{"name":"アイビス薬局手広店","category":"調剤薬局","officialUrl":"https://www.iryou.teikyouseido.mhlw.go.jp/znk-web/juminkanja/S2430/initialize?kikanCd=1421842900&kikanKbn=5&prefCd=14"}],"primaryCategory":"調剤薬局"},{"id":"PH-012","name":"オアシス薬局深沢店","address":"鎌倉市梶原1-6-10","lat":35.33232,"lng":139.51862,"categories":["調剤薬局"],"listings":[{"name":"オアシス薬局深沢店","category":"調剤薬局","officialUrl":"https://www.e-classa.net/oasis-fukasawa/information.html"}],"primaryCategory":"調剤薬局"},{"id":"PH-014","name":"マリン薬局梶原店","address":"鎌倉市梶原3-12-5","lat":35.329599,"lng":139.532639,"categories":["調剤薬局"],"listings":[{"name":"マリン薬局梶原店","category":"調剤薬局","officialUrl":"https://www.ozawa-marine.co.jp/kajiwara"}],"primaryCategory":"調剤薬局"},{"id":"PH-007","name":"マンボウ薬局七里ガ浜店","address":"鎌倉市七里ガ浜東3-1-10","lat":35.309703,"lng":139.51699127,"categories":["調剤薬局"],"listings":[{"name":"マンボウ薬局七里ガ浜店","category":"調剤薬局","officialUrl":"https://manbowpharmacy.com/"}],"primaryCategory":"調剤薬局"},{"id":"PH-018","name":"共創未来片瀬薬局","address":"藤沢市片瀬3-1-39","lat":35.316535,"lng":139.486108,"categories":["調剤薬局"],"listings":[{"name":"共創未来片瀬薬局","category":"調剤薬局","officialUrl":"https://phmirai.co.jp/store/124/"}],"primaryCategory":"調剤薬局"},{"id":"PH-016","name":"共創未来鎌倉山崎薬局","address":"鎌倉市山崎1195-1","lat":35.342313,"lng":139.526441,"categories":["調剤薬局"],"listings":[{"name":"共創未来鎌倉山崎薬局","category":"調剤薬局","officialUrl":"https://phmirai.co.jp/store/116/"}],"primaryCategory":"調剤薬局"},{"id":"PH-015","name":"有限会社清光堂薬局","address":"鎌倉市常盤638","lat":35.32194458,"lng":139.52963208,"categories":["調剤薬局"],"listings":[{"name":"有限会社清光堂薬局","category":"調剤薬局","officialUrl":"https://www.iryou.teikyouseido.mhlw.go.jp/znk-web/juminkanja/S2430/initialize?kikanCd=1411649900&kikanKbn=5&prefCd=14"}],"primaryCategory":"調剤薬局"},{"id":"PH-020","name":"海岸公園ファーマシー","address":"藤沢市片瀬4-11-29","lat":35.314609,"lng":139.483612,"categories":["調剤薬局"],"listings":[{"name":"海岸公園ファーマシー","category":"調剤薬局","officialUrl":"https://www.xn--u8jas9esjk69w1u2c.com/shop/shop4.html"}],"primaryCategory":"調剤薬局"},{"id":"PH-011","name":"湘南薬品深沢薬局","address":"鎌倉市梶原1-5-12 ピュア湘南101","lat":35.3320933,"lng":139.5183227,"categories":["調剤薬局"],"listings":[{"name":"湘南薬品深沢薬局","category":"調剤薬局","officialUrl":"https://shonan-yakuhin.co.jp/shop/"}],"primaryCategory":"調剤薬局"},{"id":"PH-013","name":"鎌倉のぞみ薬局","address":"鎌倉市梶原2-25-18","lat":35.3283,"lng":139.526,"categories":["調剤薬局"],"listings":[{"name":"鎌倉のぞみ薬局","category":"調剤薬局","officialUrl":"https://www.iryou.teikyouseido.mhlw.go.jp/znk-web/juminkanja/S2430/initialize?kikanCd=1421845300&kikanKbn=5&prefCd=14"}],"primaryCategory":"調剤薬局"},{"id":"PH-004","name":"高木薬局","address":"鎌倉市腰越3-7-21","lat":35.309517,"lng":139.491042,"categories":["調剤薬局"],"listings":[{"name":"高木薬局","category":"調剤薬局","officialUrl":"https://www.iryou.teikyouseido.mhlw.go.jp/znk-web/juminkanja/S2430/initialize?kikanCd=1411625100&kikanKbn=5&prefCd=14"}],"primaryCategory":"調剤薬局"}]}